[
    {
        "id": 1,
        "type": "监测",
        "longitude": 115.266900,
        "latitude": 33.049593,
        "name": "临泉县环境监测站"
    },
    {
        "id": 2,
        "type": "监测",
        "longitude": 115.623710,
        "latitude": 33.175151,
        "name": "太和县环境监测站"
    },
    {
        "id": 3,
        "type": "监测",
        "longitude": 115.343471,
        "latitude": 33.265740,
        "name": "界首市环境监测站"
    },
    {
        "id": 4,
        "type": "监测",
        "longitude": 115.593541,
        "latitude": 32.640021,
        "name": "阜南县环境监测站"
    },
    {
        "id": 5,
        "type": "监测",
        "longitude": 115.580851,
        "latitude": 32.590329,
        "name": "阜南县谷河水监测站（环保宣教基地）"
    },
    {
        "id": 6,
        "type": "监测",
        "longitude": 115.832517,
        "latitude": 32.890714,
        "name": "阜阳市环境监测站"
    },
    {
        "id": 7,
        "type": "监测",
        "longitude": 115.936178,
        "latitude": 32.842953,
        "name": "袁寨水自动监测站"
    },
    {
        "id": 8,
        "type": "垃圾",
        "longitude": 115.320628,
        "latitude": 33.066340,
        "name": "临泉皖能环保电力有限公司"
    },
    {
        "id": 9,
        "type": "垃圾",
        "longitude": 115.593346,
        "latitude": 33.313657,
        "name": "太和县天楹环保能源有限公司"
    },
    {
        "id": 10,
        "type": "垃圾",
        "longitude": 115.657547,
        "latitude": 32.587159,
        "name": "阜南绿色东方新能源有限公司"
    },
    {
        "id": 11,
        "type": "垃圾",
        "longitude": 116.273440,
        "latitude": 32.729391,
        "name": "颍上皖能环保电力有限公司"
    },
    {
        "id": 12,
        "type": "垃圾",
        "longitude": 115.953277,
        "latitude": 32.982964,
        "name": "颍东皖能环保电力有限公司"
    },
    {
        "id": 13,
        "type": "垃圾",
        "longitude": 115.356515,
        "latitude": 33.296755,
        "name": "界首市伟明环保能源有限公司"
    },
    {
        "id": 14,
        "type": "污水",
        "longitude": 115.286420,
        "latitude": 33.066121,
        "name": "临泉县凌志水务有限公司"
    },
    {
        "id": 15,
        "type": "污水",
        "longitude": 115.634151,
        "latitude": 33.144738,
        "name": "太和县污水处理厂"
    },
    {
        "id": 16,
        "type": "污水",
        "longitude": 115.598068,
        "latitude": 32.623295,
        "name": "阜南县污水处理厂"
    }
]